t_launch,launchFlag,yaw,pitch,roll,altitude,accel_x,accel_y,accel_z,TVCPitch,TVCYaw
6.016,0,162.484268,63.623379,-62.525536,108.885468,0.03,0.35,-0.19,0,0
8.018,0,163.015411,61.606651,-60.524296,109.221031,0.03,0.32,-0.01,0,0
10.062,0,163.336029,61.304893,-60.257511,108.885468,-0.06,0.02,0.1,0,0
12.104,0,168.08931,87.729553,-87.679764,109.390137,-0.29,0.06,1.06,0,0
14.106,0,168.463791,89.824097,-89.820465,108.885468,0.09,0.06,0.29,0,0
0.047,1,166.640244,88.162834,-88.111839,109.641159,-0.61,-0.59,-0.26,7.5,-7.5
0.096,1,167.067139,88.587723,-88.550995,109.136482,-0.18,-1.12,2.03,2.359079,-7.5
0.146,1,167.389862,90.745262,-90.763649,108.4627,0.09,-0.81,-0.03,-1.229683,-7.5
0.195,1,167.645187,91.558289,-91.595261,108.885468,0.33,0.95,-0.19,-2.602978,-7.5
0.244,1,167.792084,91.637794,-91.675766,108.885468,0.2,0.27,-0.15,-2.735785,-7.5
0.292,1,167.664734,91.520393,-91.55629,108.296242,0.07,0.16,-0.14,-2.571999,-7.5
0.339,1,167.85025,91.569412,-91.6054,109.221031,0.24,0.13,0.02,-2.689706,-7.5
0.387,1,167.992218,91.731026,-91.769676,108.380791,-0.14,0.81,0.25,-2.928318,-7.5
0.434,1,167.891586,91.359245,-91.390129,109.221031,-0.24,-0.19,0.17,-2.329515,-7.5
0.481,1,167.663864,90.622971,-90.637665,109.390137,-0.55,-0.71,0.19,-1.067665,-7.5
0.529,1,167.731522,90.529587,-90.541977,109.136482,-0.35,0.09,-0.21,-0.895885,-7.5
0.576,1,167.822479,90.687309,-90.703148,108.380791,0.24,0.05,0.11,-1.177931,-7.5
0.623,1,167.913284,90.832382,-90.85125,108.885468,-0.11,0.03,-0.18,-1.42656,-7.5
0.67,1,167.955109,90.858467,-90.877769,107.791565,-0.01,-0.08,0.27,-1.471267,-7.5
0.718,1,167.919067,90.719276,-90.735588,108.800911,0.22,-0.17,0.12,-1.216776,-7.5
0.768,1,167.974869,90.729744,-90.746063,108.380791,0.08,-0.2,-0.31,-1.204077,-7.5
0.817,1,168.000153,90.674019,-90.689034,108.716362,-0.1,0,0.27,-1.125887,-7.5
0.867,1,167.986923,90.455437,-90.46563,108.885468,-0.14,-0.01,0.24,-0.75147,-7.5
0.915,1,167.88739,90.404594,-90.413811,108.716362,-0.32,-0.15,0.01,-0.684439,-7.5
0.962,1,167.79187,90.240082,-90.245636,108.631805,-0.02,-0.06,0.14,-0.411459,-7.5
1.01,1,167.718018,90.117813,-90.12056,108.547256,0.27,-0.22,0.27,-0.199301,-7.5
1.059,1,167.781738,90.073051,-90.074738,108.716362,0.19,-0.1,0.1,-0.122026,-7.5
1.108,1,167.850555,90.172089,-90.176041,109.136482,0.21,-0.1,0.08,-0.287458,-7.5
1.157,1,167.972488,90.02282,-90.023323,109.136482,-0.13,-0.08,0.24,-0.038118,-7.5
1.206,1,168.003021,89.961174,-89.960304,108.716362,-0.17,-0.01,0.13,0.064855,-7.5
1.253,1,167.96785,89.893456,-89.89106,108.211685,-0.08,0.03,0.23,0.182599,-7.5
1.301,1,167.97049,89.860764,-89.857628,108.885468,-0.09,0.14,0.12,0.235542,-7.5
1.349,1,167.955811,89.864563,-89.861511,109.051926,-0.06,0.08,0.15,0.229114,-7.5
1.399,1,167.961166,89.601021,-89.592041,108.127136,0.05,-0.2,0.45,0.658315,-7.5
1.448,1,167.991455,89.489151,-89.477715,109.305588,0.07,0.05,0.2,0.853327,-7.5
1.498,1,167.966751,89.485367,-89.473778,108.296242,-0.04,0.15,0.15,0.849144,-7.5
1.545,1,167.940903,89.415855,-89.402649,108.885468,-0.01,0.09,0.19,1.001125,-7.5
1.592,1,167.866165,89.398636,-89.384895,108.04258,-0.09,-0.15,-0.05,1.030635,-7.5
1.64,1,167.806824,89.346382,-89.331238,108.4627,-0.12,0.17,0.31,1.105704,-7.5
1.687,1,167.808319,89.304001,-89.287933,108.800911,0.21,-0.11,0.53,1.192823,-7.5
1.734,1,167.867798,89.453308,-89.440819,107.876114,-0.15,0.21,-0.06,0.936938,-7.5
1.781,1,167.879272,89.420303,-89.407112,108.211685,-0.03,-0.02,0.36,0.993501,-7.5
1.83,1,167.872864,89.419838,-89.406609,108.296242,-0.25,0.3,0.34,0.969107,-7.5
1.877,1,167.870056,89.346199,-89.331245,108.885468,0,-0.2,0.08,1.120504,-7.5
1.924,1,167.853531,89.415146,-89.401711,108.380791,0,0.11,0.22,1.00234,-7.5
1.972,1,167.839676,89.496101,-89.48455,108.296242,0.01,0.08,0.12,0.852429,-7.5
2.021,1,167.857651,89.382172,-89.368019,108.970016,-0.04,0.05,0.19,1.032027,-7.5
2.071,1,167.85466,89.310837,-89.295082,108.380791,-0.01,0,0.25,1.137117,-7.5
2.12,1,167.873047,89.349403,-89.334564,108.631805,-0.01,-0.05,0.14,1.086765,-7.5
2.169,1,167.884079,89.306969,-89.291176,108.716362,-0.11,0.13,0.1,1.157645,-7.5
2.218,1,167.814102,89.116524,-89.09623,108.631805,0.07,-0.04,0.18,1.475765,-7.5
2.265,1,167.767715,89.022804,-89.00013,108.211685,0,-0.24,-0.08,1.674743,-7.5
2.312,1,167.821838,88.982613,-88.959198,108.296242,0.07,-0.02,0.28,1.74363,-7.5
2.361,1,167.866104,88.93853,-88.914322,108.127136,0.19,0.22,0.27,1.773088,-7.5
2.411,1,167.834076,88.813782,-88.786537,108.631805,-0.31,0.02,0.12,1.957261,-7.5
2.46,1,167.861404,88.842552,-88.816078,107.876114,0.16,-0.34,0.1,1.93341,-7.5
2.51,1,167.963501,89.105232,-89.085136,108.296242,0,0.28,0.05,1.476368,-7.5
2.557,1,167.983124,89.291779,-89.275917,108.380791,-0.15,0.02,-0.03,1.213772,-7.5
2.604,1,167.95668,89.334351,-89.319389,108.04258,-0.04,0.01,0.18,1.140807,-7.5
2.653,1,168.038635,89.405518,-89.392342,109.136482,0.3,-0.09,0.18,0.993028,-7.5
2.702,1,168.102509,89.637138,-89.629196,108.885468,-0.25,0.05,-0.1,0.606129,-7.5
2.751,1,168.171432,89.672005,-89.664902,109.136482,-0.1,0.28,0.18,0.547886,-7.5
2.801,1,168.213287,89.557884,-89.548386,108.631805,-0.41,-0.16,0.14,0.729489,-7.5
2.85,1,168.206131,89.55217,-89.542511,109.136482,0.34,0.19,-0.2,0.748061,-7.5
2.899,1,168.26265,89.617821,-89.60968,108.380791,0.03,0.04,0.12,0.638395,-7.5
2.946,1,168.415024,89.438164,-89.426445,108.4627,0.11,-0.01,0.63,0.96289,-7.5
2.993,1,168.450729,89.486565,-89.475967,108.970016,0.01,0.01,0.25,0.879942,-7.5
3.041,1,168.448547,89.451958,-89.440659,109.051926,-0.18,-0.02,0.12,0.927107,-7.5
3.088,1,168.517853,89.438774,-89.427284,108.380791,0.13,0,0.1,0.961843,-7.5
3.135,1,168.496429,89.290794,-89.276237,108.631805,-0.15,0.2,0.06,1.215459,-7.5
3.182,1,168.43425,89.032928,-89.012878,108.547256,-0.15,0.21,-0.01,1.657398,-7.5
3.229,1,168.277634,88.196114,-88.157608,108.4627,0.13,-0.09,0.23,3.091547,-7.5
3.276,1,168.031326,87.133255,-87.069672,108.800911,-0.03,-0.21,0.27,4.913117,-7.5
3.325,1,167.900818,86.438423,-86.357628,108.631805,0.34,-0.19,0.76,5.949285,-7.5
3.374,1,167.712677,86.917137,-86.845139,108.631805,-0.28,-0.39,0.13,5.149637,-7.5
3.423,1,167.801971,88.676689,-88.646126,108.970016,0.29,0.12,0.23,2.210469,-7.5
3.473,1,167.93718,90.066025,-90.067513,108.631805,-0.23,0.99,-1.04,-0.108941,-7.5
3.522,1,167.763077,88.648506,-88.617126,108.800911,0.11,-0.68,-0.04,2.257546,-7.5
3.571,1,167.79567,88.748947,-88.720062,108.4627,0.01,-0.14,0.39,2.089768,-7.5
3.618,1,167.857498,88.787827,-88.760117,108.631805,-0.22,-0.26,0.36,2.077461,-7.5
3.666,1,167.80394,88.492706,-88.457901,108.4627,0.32,-0.16,-0.01,2.549843,-7.5
3.715,1,167.885529,88.535736,-88.502426,108.716362,-0.04,-0.12,-0.68,2.445918,-7.5
3.764,1,168.037735,87.897018,-87.850471,108.547256,0.09,0.07,0.26,3.512836,-7.5
3.813,1,168.172302,88.159607,-88.119644,108.631805,0.11,0.38,-0.14,3.074207,-7.5
3.863,1,168.185196,88.188225,-88.149132,108.716362,-0.18,-0.31,0.1,2.989431,-7.5
3.911,1,168.407562,88.256409,-88.220039,108.716362,-0.04,0.16,0.04,2.949572,-7.5
3.958,1,168.610489,88.278893,-88.244415,108.885468,0.22,0.46,0.14,2.949688,-7.5
4.006,1,168.490112,88.157913,-88.120232,108.800911,-0.01,0.19,0.14,3.116193,-7.5
4.055,1,168.603271,88.1689,-88.132202,108.631805,-0.13,0.2,0.39,3.058693,-7.5
4.105,1,168.708313,88.027771,-87.988983,108.631805,0.01,-0.23,0.01,3.25417,-7.5
4.154,1,168.798584,87.960686,-87.921112,109.305588,-0.16,0.06,-0.01,3.406496,-7.5
4.203,1,168.811493,87.76857,-87.725357,108.800911,0.12,0.48,0.05,3.727387,-7.5
4.252,1,168.715942,87.581573,-87.534073,107.958031,-0.22,-0.37,0.36,4.03977,-7.5
4.299,1,168.814178,87.98159,-87.942566,108.800911,-0.05,0.18,0.25,3.459214,-7.5
4.347,1,168.88533,88.372971,-88.341904,108.800911,0.39,0.12,-0.3,2.752379,-7.5
4.394,1,168.841446,88.096878,-88.06031,108.380791,-0.24,-0.11,0.68,3.26163,-7.5
4.441,1,168.822189,87.90699,-87.86647,108.716362,0.03,-0.01,0.04,3.587066,-7.5
4.488,1,168.776489,87.549431,-87.501762,108.4627,-0.16,0.19,0.2,4.199862,-7.5
4.535,1,168.72168,87.357971,-87.305901,108.800911,-0.11,0.03,0.19,4.527992,-7.5
4.583,1,168.716949,87.064842,-87.007004,108.800911,0.25,-0.26,0.12,4.965287,-7.5
4.63,1,168.730438,86.766518,-86.703171,108.885468,-0.21,0.36,0.54,5.541644,-7.5
4.678,1,168.682602,86.825058,-86.762268,108.970016,-0.14,-0.06,-0.33,5.370954,-7.5
4.727,1,168.728012,86.709206,-86.644791,108.970016,0.01,0.12,0.07,5.496952,-7.5
4.776,1,168.728851,86.718658,-86.654137,108.716362,-0.09,0.11,-0.05,5.481194,-7.5
4.826,1,168.719101,86.447136,-86.377296,108.547256,0.01,-0.02,0.36,5.862212,-7.5
4.874,1,168.652557,86.474899,-86.404709,108.4627,0.11,-0.03,0.24,5.963306,-7.5
4.922,1,168.595596,86.608292,-86.540108,108.631805,0,0.07,0.21,5.73765,-7.5
4.969,1,168.482239,86.509323,-86.437569,108.380791,-0.1,0.4,0.43,5.982431,-7.5
5.018,1,168.356949,86.335136,-86.258202,108.716362,-0.23,-0.19,0.19,6.121798,-7.5
5.067,1,168.343658,86.180122,-86.100006,108.631805,0.15,0.18,-0.01,6.380772,-7.5
5.117,1,168.285599,85.912773,-85.826172,108.631805,-0.04,-0.06,0.32,6.743908,-7.5
5.166,1,168.224365,85.724709,-85.633072,109.051926,-0.18,0.17,0.24,7.141501,-7.5
5.214,1,168.12674,85.400429,-85.3004,109.136482,0.1,-0.03,0.23,7.5,-7.5
5.261,1,168.106781,85.200432,-85.095886,108.800911,-0.19,0.24,0.26,7.5,-7.5
5.309,1,168.231262,85.239525,-85.137817,109.051926,0.06,-0.2,0.27,7.5,-7.5
5.358,1,168.336365,85.71022,-85.620354,108.970016,-0.08,0.04,0.15,7.165702,-7.5
5.408,1,168.529572,86.404892,-86.331909,108.4627,-0.07,-0.02,-0.04,5.931914,-7.5
5.456,1,168.666016,86.593506,-86.525818,108.631805,-0.06,0.27,0.16,5.762663,-7.5
5.503,1,168.648422,86.378662,-86.30648,108.631805,0.17,0.23,-0.06,6.206363,-7.5
5.55,1,168.527679,86.135796,-86.057228,108.631805,-0.16,-0.05,0,6.622553,-7.5
5.597,1,168.407883,86.013626,-85.930901,108.631805,0.03,0.16,0.19,6.831972,-7.5
5.645,1,168.413269,86.090546,-86.0093,108.631805,-0.1,-0.19,0.18,6.613506,-7.5
5.692,1,168.370789,86.378075,-86.302559,108.380791,-0.04,0.14,0.13,6.207369,-7.5
5.739,1,168.339203,86.432724,-86.357727,108.547256,0.12,0.21,0.08,6.113709,-7.5
5.786,1,168.343719,86.696587,-86.627403,108.296242,0.15,-0.18,0.1,5.661493,-7.5
5.833,1,168.247238,86.815598,-86.747421,108.296242,-0.18,0.15,-0.03,5.457494,-7.5
5.881,1,168.1763,86.619667,-86.546654,108.631805,-0.18,0.12,0.07,5.718407,-7.5
5.93,1,168.104797,86.651939,-86.578499,108.380791,-0.12,-0.02,0.04,5.592643,-7.5
5.98,1,168.151199,86.727325,-86.656197,108.547256,-0.01,-0.01,0.14,5.3999,-7.5
6.029,1,168.247498,86.80452,-86.736343,108.380791,0.1,0.43,0.05,5.33777,-7.5
6.078,1,168.18898,86.519936,-86.445,108.547256,0.06,-0.08,0.14,5.813109,-7.5
6.128,1,168.16658,86.316925,-86.237366,108.211685,-0.01,-0.01,0.82,6.077095,-7.5
6.177,1,168.193558,86.296227,-86.216576,109.051926,-0.04,0.01,0.33,6.186793,-7.5
6.224,1,168.201462,86.305428,-86.226059,108.716362,-0.02,0.04,-0.16,6.331874,-7.5
6.272,1,168.249359,86.318321,-86.239655,108.547256,0.07,0.1,-0.06,6.228185,-7.5
6.321,1,168.268539,86.282394,-86.203384,109.051926,-0.11,0.24,-0.06,6.209898,-7.5
6.37,1,168.298355,86.11132,-86.028893,108.380791,-0.09,-0.34,0.61,6.495699,-7.5
6.419,1,168.43689,86.832283,-86.76683,108.4627,0.6,0.86,1.12,5.291363,-7.5
6.469,1,168.515091,87.172699,-87.11515,108.547256,0.22,-0.21,0.16,4.665063,-7.5
6.517,1,168.553833,87.144348,-87.086426,108.631805,-0.14,0.03,-0.12,4.830791,-7.5
6.564,1,168.571899,87.032928,-86.972954,108.716362,0.04,0.15,0.48,5.08506,-7.5
6.612,1,168.612305,87.048439,-86.98909,108.380791,-0.05,0.11,-0.28,4.993066,-7.5
6.661,1,168.641815,86.864388,-86.801956,108.296242,0.1,0.11,0.53,5.237766,-7.5
6.711,1,168.469437,86.680092,-86.611893,108.211685,0.07,-0.27,-0.24,5.477836,-7.5
6.76,1,168.47496,86.611069,-86.54158,107.876114,0.09,0.1,-0.15,5.66088,-7.5
6.809,1,168.558502,86.108322,-86.029694,108.127136,-0.01,0.09,0.44,6.500708,-7.5
6.858,1,168.469238,85.086678,-84.985931,108.296242,-0.1,-0.19,0.84,7.5,-7.5
6.905,1,168.508224,84.806824,-84.701096,108.380791,0.36,0.22,0.29,7.5,-7.5
6.952,1,168.513977,84.94001,-84.837013,108.631805,0.08,0.49,-0.28,7.5,-7.5
6.999,1,168.353516,83.962303,-83.83622,108.4627,0.06,-0.13,0.21,7.5,-7.5
7.046,1,168.234406,82.74334,-82.589256,107.876114,-0.06,0.53,0.48,7.5,-7.5
7.094,1,168.035721,81.932091,-81.755104,108.800911,0,0.07,0.71,7.5,-7.5
7.141,1,168.051544,81.911461,-81.734589,108.296242,0.08,-0.13,-0.06,7.5,-7.5
7.188,1,168.063766,82.101837,-81.929314,108.4627,-0.05,0.54,0.65,7.5,-7.5
7.235,1,168.166016,82.598335,-82.439682,108.716362,-0.13,0.2,0.94,7.5,-7.5
7.284,1,168.186661,82.459488,-82.298477,108.127136,0.22,0.26,-0.05,7.5,-7.5
7.333,1,168.023972,80.779243,-80.577904,108.631805,0.08,-0.26,0.14,7.5,-7.5
7.382,1,167.943008,79.578255,-79.348137,108.547256,-0.01,0.22,0.82,7.5,-7.5
7.432,1,167.87558,79.468536,-79.233429,108.547256,-0.13,0.02,0.54,7.5,-7.5
7.481,1,167.876663,79.947151,-79.723,108.800911,0.06,-0.13,-0.36,7.5,-7.5
7.53,1,167.79039,79.709091,-79.47583,108.296242,0.08,0.1,0.6,7.5,-7.5
7.577,1,167.779922,79.889366,-79.660065,108.800911,-0.32,-0.29,-0.28,7.5,-7.5
7.625,1,167.787277,79.953255,-79.725533,108.631805,0.05,0.41,0.53,7.5,-7.5
7.674,1,167.767532,80.451042,-80.233383,107.876114,-0.09,-0.27,0,7.5,-7.5
7.723,1,167.761765,80.524651,-80.308266,109.136482,0.2,0.26,0.35,7.5,-7.5
7.773,1,167.768692,81.211975,-81.011581,108.800911,-0.55,-0.03,-0.2,7.5,-7.5
7.822,1,167.771683,81.570198,-81.377403,108.631805,0.18,-0.12,-0.15,7.5,-7.5
7.871,1,167.734482,81.747787,-81.557541,108.970016,-0.4,0.14,0.59,7.5,-7.5
7.919,1,167.753036,82.116943,-81.935875,108.4627,0.16,-0.26,-0.39,7.5,-7.5
7.966,1,167.748215,82.082527,-81.900383,108.631805,0.16,0.2,0.31,7.5,-7.5
8.015,1,167.685028,82.031876,-81.846237,108.547256,-0.27,-0.35,-0.32,7.5,-7.5
8.064,1,167.68483,81.890167,-81.701775,109.051926,0.04,0.07,0.37,7.5,-7.5
8.114,1,167.69693,81.893532,-81.705147,108.296242,-0.1,0.04,0.22,7.5,-7.5
8.163,1,167.70253,81.808197,-81.618736,108.127136,0,0.13,-0.14,7.5,-7.5
8.211,1,167.695633,81.695755,-81.503212,108.380791,-0.04,0.02,0.23,7.5,-7.5
8.258,1,167.704544,81.836861,-81.647926,107.876114,-0.04,0.09,0.2,7.5,-7.5
8.305,1,167.707153,81.913155,-81.726105,108.04258,-0.17,0.31,0.13,7.5,-7.5
8.353,1,167.732162,81.841492,-81.653046,108.296242,0.1,-0.29,-0.15,7.5,-7.5
8.4,1,167.703476,81.628807,-81.435287,108.296242,0.01,0.11,0.33,7.5,-7.5
8.447,1,167.685928,81.702972,-81.510475,108.380791,0.02,-0.15,-0.45,7.5,-7.5
8.496,1,167.681458,81.59388,-81.398666,107.958031,-0.03,0.25,0.43,7.5,-7.5
8.543,1,167.695694,81.73465,-81.543175,108.4627,-0.14,0,0.05,7.5,-7.5
8.59,1,167.749771,81.571945,-81.378372,108.885468,0.01,-0.21,0.06,7.5,-7.5
8.638,1,167.747559,81.553879,-81.360046,108.547256,-0.12,0.2,0.17,7.5,-7.5
8.686,1,167.755585,81.770836,-81.581619,109.305588,0.14,-0.29,-0.02,7.5,-7.5
8.736,1,167.758057,81.836113,-81.648506,108.4627,0.12,0.39,0.14,7.5,-7.5
8.785,1,167.751999,81.696541,-81.505592,108.631805,-0.04,-0.04,0.26,7.5,-7.5
8.834,1,167.737579,81.472626,-81.276253,108.631805,0,0.08,-0.06,7.5,-7.5
8.884,1,167.71817,81.166115,-80.96257,108.800911,-0.05,-0.16,0.16,7.5,-7.5
8.932,1,167.713318,81.155853,-80.951942,108.380791,-0.21,0.13,0.52,7.5,-7.5
8.979,1,167.708633,81.132721,-80.928024,108.380791,0,0.06,-0.06,7.5,-7.5
9.028,1,167.703354,81.016479,-80.809143,108.547256,-0.2,0.12,0.21,7.5,-7.5
9.077,1,167.687439,80.545532,-80.327415,108.885468,-0.1,0.23,0.21,7.5,-7.5
9.126,1,167.61319,79.312462,-79.063141,109.051926,0.09,-0.03,0.06,7.5,-7.5
9.176,1,167.517578,77.66774,-77.378227,109.221031,-0.08,-0.11,0.28,7.5,-7.5
9.225,1,167.545074,77.140671,-76.841042,108.716362,0.42,0.08,0.4,7.5,-7.5
9.274,1,167.555405,77.797234,-77.513115,108.547256,-0.05,0.28,0.19,7.5,-7.5
9.321,1,167.640015,78.247253,-77.976456,109.051926,-0.01,0.7,0.23,7.5,-7.5
9.369,1,167.663834,78.518318,-78.254204,108.885468,0.14,-0.33,-0.01,7.5,-7.5
9.418,1,167.741989,79.15007,-78.903481,108.4627,0.02,0.21,-0.02,7.5,-7.5
9.467,1,167.764587,79.98848,-79.760818,108.547256,-0.01,0,0.38,7.5,-7.5
9.516,1,167.856796,81.490982,-81.299255,109.136482,-0.09,0.05,0.03,7.5,-7.5
9.566,1,168.02742,82.708092,-82.547974,108.716362,-0.06,-0.11,0.45,7.5,-7.5
9.614,1,168.07103,83.441635,-83.298088,108.547256,0.11,0,-0.2,7.5,-7.5
9.661,1,168.206741,83.961014,-83.832069,108.4627,0.01,0.26,-0.02,7.5,-7.5
9.709,1,168.252518,83.884506,-83.75486,109.136482,-0.04,-0.31,0.51,7.5,-7.5
9.757,1,168.327179,84.210419,-84.089272,108.885468,-0.22,0.23,0.12,7.5,-7.5
9.804,1,168.471161,84.280556,-84.163742,108.800911,0.13,0.35,0.06,7.5,-7.5
9.851,1,168.475159,84.410477,-84.296143,109.221031,0.02,0.07,0.27,7.5,-7.5
9.898,1,168.46283,84.415672,-84.301392,108.4627,0,-0.04,0,7.5,-7.5
9.945,1,168.489563,84.147942,-84.028465,108.631805,-0.13,-0.04,0.44,7.5,-7.5
9.992,1,168.449615,83.819733,-83.693481,108.547256,-0.22,0,-0.07,7.5,-7.5
10.04,1,168.46814,83.95813,-83.83461,108.296242,0.05,0.68,0.06,7.5,-7.5
10.089,1,168.43663,83.690277,-83.560814,108.4627,0.13,0.43,-0.36,7.5,-7.5
10.139,1,168.3013,83.413834,-83.27523,108.296242,-0.33,0.03,-0.06,7.5,-7.5
10.188,1,168.371719,84.049171,-83.925491,108.547256,0.11,0.78,-0.47,7.5,-7.5
10.238,1,168.421051,84.726234,-84.617348,108.4627,0.51,0.25,0.24,7.5,-7.5
10.287,1,168.397888,85.406029,-85.310921,109.136482,-0.06,-0.12,-0.57,7.5,-7.5
10.335,1,168.525864,85.394554,-85.300911,108.547256,0.12,0.55,0.27,7.5,-7.5
10.382,1,168.450546,85.911163,-85.826897,108.885468,0.02,0.16,0.45,7.007576,-7.5
10.43,1,168.421097,85.802856,-85.715744,108.800911,-0.05,-0.13,0,7.100137,-7.5
10.48,1,168.38414,85.564262,-85.471558,108.547256,-0.02,0.08,-0.14,7.319035,-7.5
10.529,1,168.309189,85.303108,-85.203979,108.885468,-0.01,0.17,0.4,7.5,-7.5
10.579,1,168.34053,85.231049,-85.131401,108.296242,-0.05,-0.25,0,7.5,-7.5
10.628,1,168.359802,85.483368,-85.38868,108.716362,0.12,0.41,-0.34,7.5,-7.5
10.676,1,168.238541,85.311386,-85.211151,108.04258,-0.12,-0.22,0.31,7.5,-7.5
10.723,1,168.300674,85.616348,-85.523804,108.127136,0.01,-0.12,0.27,7.5,-7.5
10.771,1,168.452271,85.893723,-85.809273,108.631805,0.1,1.09,0.15,6.946423,-7.5
10.821,1,168.49144,85.888718,-85.804611,108.631805,-0.18,-0.9,0.55,6.7836,-7.5
10.87,1,168.588531,86.203598,-86.127167,108.800911,-0.03,0.17,-0.06,6.341558,-7.5
10.919,1,168.49617,86.078293,-85.998276,108.547256,-0.22,-0.17,0,6.550869,-7.5
10.969,1,168.523987,86.10051,-86.021393,109.136482,-0.15,0.02,0.12,6.434144,-7.5
11.017,1,168.608063,86.233276,-86.157661,108.970016,0.11,0.19,0.17,6.372013,-7.5
11.064,1,168.600937,86.419052,-86.347099,109.390137,-0.17,-0.11,0.05,6.13714,-7.5
11.112,1,168.568848,86.697693,-86.630997,109.221031,-0.19,-0.32,0,5.586379,-7.5
11.159,1,168.660782,87.571198,-87.522903,109.136482,0.05,0.41,0.43,4.162558,-7.5
11.206,1,168.616653,88.668045,-88.641319,109.221031,0.04,-0.04,-0.21,2.282746,-7.5
11.253,1,168.703964,89.404289,-89.392517,108.885468,0.18,0.52,0.17,1.020948,-7.5
11.302,1,168.6586,89.833641,-89.83033,108.800911,0.11,-0.08,0.21,0.277888,-7.5
11.349,1,168.678986,89.984825,-89.984528,108.716362,-0.01,0.27,0.18,0.026007,-7.5
11.396,1,168.67067,90.382813,-90.390442,108.380791,0.07,0.15,-0.08,-0.656076,-7.5
11.444,1,168.571686,90.295753,-90.301735,108.885468,-0.04,0.14,0.02,-0.500314,-7.5
11.493,1,168.521286,90.004951,-90.005043,108.885468,0.15,0.13,0,-0.008271,-7.5
11.542,1,168.545502,89.340111,-89.326729,108.631805,-0.01,-0.13,0.19,1.102287,-7.5
11.592,1,168.580246,89.050903,-89.031761,108.547256,0.1,-0.11,0.17,1.566006,-7.5
11.641,1,168.529465,88.891342,-88.868774,108.716362,-0.07,0.29,-0.2,1.851916,-7.5
11.689,1,168.507584,88.462387,-88.431,108.716362,0.04,-0.11,0.05,2.601117,-7.5
11.736,1,168.55658,88.055725,-88.016319,108.885468,0.02,0.1,0.39,3.332159,-7.5
11.784,1,168.557373,88.013672,-87.973396,108.800911,-0.05,0.16,0.11,3.36019,-7.5
11.833,1,168.556412,88.135536,-88.097733,108.631805,-0.05,0.11,0.06,3.114424,-7.5
11.883,1,168.550797,87.907013,-87.864426,108.800911,0,0.14,0.11,3.453421,-7.5
11.932,1,168.521378,87.559555,-87.509781,108.631805,-0.01,-0.02,0.23,4.07655,-7.5
11.981,1,168.526337,87.557579,-87.507767,108.4627,0.12,0.23,0.21,4.079851,-7.5
12.029,1,168.520676,87.599472,-87.550491,108.970016,-0.22,-0.03,0.03,4.060876,-7.5
12.076,1,168.532593,87.564392,-87.514938,108.716362,0.25,0.23,0.33,4.174221,-7.5
12.125,1,168.510406,87.618759,-87.570099,108.296242,-0.24,-0.18,0.11,3.977655,-7.5
12.174,1,168.56424,87.75161,-87.706131,108.4627,0.1,0.35,0.11,3.755739,-7.5
12.223,1,168.526199,87.683685,-87.636566,108.380791,-0.06,0.1,0.35,3.869201,-7.5
12.272,1,168.524124,87.724182,-87.677689,108.211685,-0.04,0.07,-0.1,3.80151,-7.5
12.32,1,168.540359,87.667824,-87.620415,108.631805,0.14,0.04,0.13,3.945296,-7.5
12.367,1,168.513428,87.660942,-87.613235,109.221031,-0.08,0.1,0.12,4.008751,-7.5
12.415,1,168.491226,87.747559,-87.701363,108.380791,0.02,0.26,0.01,3.810364,-7.5
12.462,1,168.415573,87.72113,-87.673843,108.970016,-0.06,-0.02,0.39,3.905598,-7.5
12.509,1,168.374939,87.732071,-87.684692,108.970016,-0.07,0.25,0.3,3.886848,-7.5
12.556,1,168.388977,87.89135,-87.847351,108.800911,-0.11,0.11,0.08,3.613871,-7.5
12.603,1,168.333557,87.936234,-87.892654,109.051926,0.02,-0.23,0.05,3.536948,-7.5
12.65,1,168.288605,88.024574,-87.982651,108.800911,0.09,0.1,-0.15,3.385546,-7.5
12.697,1,168.259537,88.020462,-87.978157,109.136482,-0.15,-0.08,0.33,3.392594,-7.5
12.746,1,168.261749,88.238541,-88.200844,108.800911,0.05,-0.05,-0.09,2.942329,-7.5
12.795,1,168.246078,88.498764,-88.46653,108.800911,-0.01,0.19,0.26,2.507684,-7.5
12.845,1,168.238983,88.477615,-88.445007,108.631805,0,-0.02,0.18,2.511929,-7.5
12.894,1,168.222168,88.458534,-88.425438,109.136482,-0.09,0.16,-0.05,2.574884,-7.5
12.944,1,168.189789,88.144867,-88.104782,108.716362,0.11,0.04,0.34,3.060962,-7.5
12.992,1,168.208176,88.408058,-88.373779,109.221031,-0.18,0.17,-0.54,2.693056,-7.5
13.04,1,168.228958,88.317436,-88.281334,108.800911,0.05,-0.06,0.19,2.846325,-7.5
13.087,1,168.213181,88.311996,-88.275742,108.631805,0.09,0.14,-0.14,2.892953,-7.5
13.136,1,168.180756,88.112015,-88.071091,108.631805,-0.05,-0.02,-0.05,3.153714,-7.5
13.186,1,168.09761,87.575867,-87.522568,108.631805,0.01,-0.21,-0.1,3.999811,-7.5
13.235,1,168.076813,87.210709,-87.149452,108.4627,-0.19,0.28,-0.19,4.659267,-7.5
13.284,1,167.993652,87.259727,-87.198471,108.716362,-0.04,0.13,0.21,4.577332,-7.5
13.333,1,167.850525,87.356873,-87.296471,108.631805,0.12,0.32,-0.02,4.415113,-7.5
13.38,1,167.78212,87.435135,-87.375717,108.380791,0.17,0.06,0.06,4.395746,-7.5
13.428,1,167.752487,87.563934,-87.507324,108.547256,0.09,-0.08,0.53,4.120994,-7.5
13.477,1,167.758865,88.146492,-88.103386,109.136482,0.17,0.12,0.51,3.096123,-7.5
13.526,1,167.747421,88.764862,-88.736053,108.631805,-0.28,-0.43,0.29,2.06319,-7.5
13.576,1,167.904312,89.98822,-89.987953,109.305588,-0.26,-0.58,-0.23,0.019437,-7.5
13.625,1,167.959076,91.638596,-91.675514,108.211685,0.46,0.34,0.15,-2.737131,-7.5
13.674,1,167.753632,93.356865,-93.434792,108.127136,0.41,-0.02,1.04,-5.607349,-7.5
13.721,1,167.420181,95.625031,-95.762329,108.127136,-0.42,1.15,-0.14,-7.5,-7.5
13.768,1,167.217865,98.120056,-98.323647,108.547256,-0.15,0.69,0.05,-7.5,-7.5
13.815,1,166.899658,100.820686,-101.102837,108.380791,0.08,0.37,0.49,-7.5,-7.5
13.863,1,166.617279,101.959618,-102.283691,108.631805,0.16,0.12,0.67,-7.5,-7.5
13.91,1,167.075714,102.491295,-102.806572,108.970016,-0.33,-0.57,-0.51,-7.5,-7.5
13.957,1,167.25087,103.362411,-103.687386,108.380791,0.11,0.39,0.42,-7.5,-7.5
14.004,1,167.226135,104.979073,-105.342468,108.547256,-0.28,0.21,-0.41,-7.5,-7.5
14.051,1,167.167236,105.339417,-105.712021,108.380791,0.15,-0.02,0.41,-7.5,-7.5
14.099,1,167.295044,104.774826,-105.130203,108.547256,0.03,0.02,0.45,-7.5,-7.5
14.149,1,167.25383,104.703445,-105.058823,108.296242,-0.22,-0.77,0.05,-7.5,-7.5
14.198,1,167.087967,106.271492,-106.670998,108.380791,0.1,-0.41,0.86,-7.5,-7.5
14.248,1,166.993118,107.444565,-107.875465,108.970016,-0.26,0.92,-0.69,-7.5,-7.5
14.297,1,167.047806,107.32457,-107.748283,108.716362,0.17,0.09,0.93,-7.5,-7.5
14.346,1,166.838379,107.586296,-108.030388,109.051926,0.3,-0.66,0.39,-7.5,-7.5
14.394,1,166.350464,108.667839,-109.171661,109.136482,-0.01,-0.3,0.18,-7.5,-7.5
14.441,1,165.986862,109.631111,-110.183762,109.051926,-0.32,-0.28,-0.26,-7.5,-7.5
14.489,1,166.048676,110.109032,-110.66909,108.547256,0.3,-0.77,0.59,-7.5,-7.5
14.539,1,165.805145,111.027679,-111.626999,108.631805,-0.07,0.48,-0.25,-7.5,-7.5
14.588,1,165.454636,111.433174,-112.075851,108.716362,-0.29,-0.43,0.65,-7.5,-7.5
14.638,1,165.631653,111.396034,-112.020744,108.800911,-0.31,0.22,-0.02,-7.5,-7.5
14.687,1,165.690659,111.822144,-112.450859,108.547256,0.23,-0.84,0.41,-7.5,-7.5
14.735,1,165.887299,111.298035,-111.899529,109.390137,-0.17,0.51,0.1,-7.5,-7.5
14.782,1,166.668289,109.346298,-109.83979,109.136482,0.28,0.93,0.53,-7.5,-7.5
14.83,1,167.622375,106.225746,-106.590851,108.4627,-0.09,-0.73,-0.26,-7.5,-7.5
14.88,1,168.446411,102.568016,-102.820274,108.885468,0.44,-0.49,0.62,-7.5,-7.5
14.929,1,168.543427,100.842491,-101.057716,109.136482,-0.11,-0.39,0.09,-7.5,-7.5
14.979,1,168.584335,98.910027,-99.086891,108.800911,-0.21,0.05,-0.17,-7.5,-7.5
15.028,1,168.693878,97.18924,-97.329765,108.547256,-0.51,-1.04,-0.22,-7.5,-7.5
15.075,1,168.859955,95.905045,-96.017754,108.970016,0.19,0.44,0.79,-7.5,-7.5
15.123,1,169.574142,93.81353,-93.877258,109.136482,0.81,0.35,0.19,-6.451194,-7.5
15.17,1,169.777786,92.225212,-92.260979,108.631805,-0.31,-0.58,-0.26,-3.813638,-7.5
15.217,1,169.593048,91.024574,-91.041725,108.885468,0.38,0.61,0.91,-1.755948,-7.5
15.264,1,169.919281,89.872215,-89.870209,108.800911,0.55,-0.57,-0.76,0.219001,-7.5
15.311,1,169.885803,89.765221,-89.761513,108.970016,-0.56,-0.42,0.29,0.402372,-7.5
15.358,1,169.700302,90.170601,-90.173386,108.970016,-0.14,-0.24,0.18,-0.292381,-7.5
15.405,1,169.583832,91.278275,-91.299706,108.970016,0.17,0.34,-0.42,-2.190747,-7.5
15.453,1,169.48996,92.09671,-92.132515,109.051926,-0.02,0.42,0.06,-3.54692,-7.5
15.502,1,169.361618,92.290642,-92.330727,108.631805,-0.01,-0.22,0.65,-3.826317,-7.5
15.552,1,169.097244,93.018623,-93.074242,108.716362,-0.26,-0.46,0,-4.980717,-7.5
15.601,1,169.237701,93.337593,-93.39711,108.800911,0.2,0.4,-0.04,-5.575158,-7.5
15.65,1,169.264557,93.152695,-93.208679,108.547256,-0.02,-0.24,0.11,-5.266301,-7.5
15.7,1,169.240662,93.221863,-93.279266,108.716362,0.06,-0.11,1.14,-5.316061,-7.5
15.749,1,169.292816,93.411446,-93.471725,108.631805,0.08,-0.07,0.37,-5.698522,-7.5
15.796,1,169.21492,93.558411,-93.622414,108.380791,-0.08,0.03,-0.2,-6.098516,-7.5
15.843,1,169.286331,93.625114,-93.689156,108.4627,-0.07,0.28,0.17,-6.212756,-7.5
15.892,1,169.280197,93.595894,-93.659851,108.380791,-0.09,0.08,0.08,-6.006626,-7.5
15.942,1,169.284164,93.401428,-93.461678,108.716362,-0.06,-0.13,0.29,-5.612344,-7.5
15.991,1,169.274078,93.341255,-93.400627,108.296242,-0.04,0.11,0.07,-5.581275,-7.5
16.039,1,169.223511,93.39238,-93.453125,108.4627,0.03,-0.13,0.07,-5.738821,-7.5
16.086,1,169.328369,93.447945,-93.50856,108.4627,0.02,0.02,0.24,-5.909122,-7.5
16.134001,1,169.386124,93.60775,-93.670586,108.631805,0.1,0.15,-0.06,-6.103085,-7.5
16.183001,1,169.353043,93.693687,-93.758087,108.547256,-0.11,0.14,0.2,-6.169982,-7.5
16.233,1,169.29126,93.489944,-93.55159,108.296242,-0.03,-0.2,0.22,-5.758462,-7.5
16.282,1,169.310349,93.355827,-93.414894,108.296242,0.13,0.28,0.25,-5.605617,-7.5
16.330999,1,169.22435,93.170944,-93.22773,108.970016,-0.11,-0.11,0.08,-5.296785,-7.5
16.378,1,169.307022,93.266487,-93.324104,109.136482,0.07,-0.01,0.16,-5.598138,-7.5
16.426001,1,169.311813,93.386803,-93.446625,108.800911,0.05,0.17,0.2,-5.729317,-7.5
16.474001,1,169.306717,93.386803,-93.446686,108.716362,-0.09,0.06,0.02,-5.729317,-7.5
16.524,1,169.332947,93.390457,-93.450005,108.885468,-0.03,0.15,0.17,-5.594306,-7.5
16.570999,1,169.267349,93.321205,-93.38002,108.716362,0.01,-0.19,0.27,-5.692057,-7.5
16.618,1,169.240601,93.253754,-93.311661,109.390137,-0.04,0.05,0.14,-5.576315,-7.5
16.665001,1,169.225952,93.219124,-93.276718,108.885468,0.1,-0.12,0.13,-5.516966,-7.5
16.712,1,169.285553,93.240181,-93.29744,109.051926,0,0.04,0.05,-5.553194,-7.5
16.759001,1,169.294403,93.239372,-93.296837,108.970016,0.02,0.21,0.17,-5.551668,-7.5
16.806,1,169.271011,93.077339,-93.132126,108.211685,0.09,-0.09,0.11,-5.274107,-7.5
16.855,1,169.281693,93.085541,-93.140129,108.970016,-0.08,-0.05,0.13,-5.154126,-7.5
16.905001,1,169.351883,93.153061,-93.208099,109.051926,0.07,0.22,0.15,-5.202478,-7.5
16.954,1,169.337936,93.042946,-93.096336,108.970016,-0.07,-0.08,0.15,-5.082975,-7.5
17.003,1,169.338364,92.978317,-93.030495,108.800911,0.05,0.08,0.07,-4.975019,-7.5
17.052,1,169.340668,92.869202,-92.919556,108.716362,0.02,-0.08,-0.02,-4.79275,-7.5
17.099001,1,169.404129,92.587181,-92.631897,108.716362,0.05,-0.15,0.21,-4.433936,-7.5
17.146999,1,169.485077,92.178711,-92.215843,109.474693,-0.33,-0.17,0.09,-3.685727,-7.5
17.195999,1,169.554092,91.979538,-92.012756,109.221031,-0.13,0.11,0.14,-3.306645,-7.5
17.245001,1,169.588943,92.384552,-92.424347,109.390137,0,-0.37,0.06,-3.983091,-7.5
17.294001,1,169.742172,93.156967,-93.208336,108.631805,0.04,0.26,-0.05,-5.273438,-7.5
17.344,1,169.689194,93.591789,-93.650719,108.970016,-0.13,0,0.16,-5.926507,-7.5
17.392,1,169.69928,94.109207,-94.176064,108.631805,0.11,-0.42,0.39,-6.951379,-7.5
17.438999,1,169.791779,95.146225,-95.228264,108.885468,0.05,0.25,-0.24,-7.5,-7.5
17.487,1,169.880905,95.474022,-95.55986,108.547256,-0.11,0.18,-0.03,-7.5,-7.5
17.535999,1,169.99939,95.485512,-95.569412,108.211685,0.24,-0.07,0.24,-7.5,-7.5
17.586,1,170.118729,95.507278,-95.589821,108.380791,0,0.08,0.24,-7.5,-7.5
17.635,1,170.11792,95.497032,-95.578979,108.547256,-0.22,0.02,-0.2,-7.5,-7.5
17.683001,1,170.124756,95.487312,-95.569016,108.716362,0.13,-0.1,0.16,-7.5,-7.5
17.73,1,170.151047,95.635704,-95.719284,108.631805,0.07,0.06,0.11,-7.5,-7.5
17.777,1,170.20079,95.658844,-95.741669,108.547256,0.11,0.3,0.28,-7.5,-7.5
17.825001,1,170.167938,95.583443,-95.666245,108.380791,-0.01,-0.11,-0.12,-7.5,-7.5
17.872,1,170.129364,95.585709,-95.669083,108.296242,0,0.13,0.03,-7.5,-7.5
17.919001,1,170.050964,95.657898,-95.743362,108.4627,0,-0.01,0.66,-7.5,-7.5
17.966,1,169.915817,95.832565,-95.923866,108.970016,-0.19,-0.12,0.53,-7.5,-7.5
18.013,1,169.946381,95.844559,-95.934807,108.716362,0.04,0.07,0.01,-7.5,-7.5
18.059999,1,169.956192,95.80407,-95.894218,109.051926,0,-0.11,0.19,-7.5,-7.5
18.108999,1,169.961365,95.749077,-95.837677,108.885468,-0.11,0.28,0.14,-7.5,-7.5
18.158001,1,169.824554,95.638245,-95.727966,108.547256,0.05,-0.21,-0.01,-7.5,-7.5
18.207001,1,169.776672,95.6595,-95.750282,109.221031,-0.16,0.01,0.17,-7.5,-7.5
18.257,1,169.854156,95.617737,-95.706696,109.051926,0.13,0.04,0.1,-7.5,-7.5
18.306,1,169.777451,95.544922,-95.633942,108.885468,-0.2,-0.11,0,-7.5,-7.5
18.356001,1,169.846039,95.19828,-95.28051,108.885468,0.07,0.1,-0.04,-7.5,-7.5
18.403999,1,169.749878,94.833931,-94.911667,109.051926,-0.15,-0.12,0.07,-7.5,-7.5
18.451,1,169.734985,94.713806,-94.790123,108.716362,-0.2,-0.03,0.07,-7.5,-7.5
18.499001,1,169.741943,94.612274,-94.686722,108.547256,0.03,0.06,0.11,-7.5,-7.5
18.548,1,169.789841,94.280678,-94.349472,108.800911,0.03,0.15,-0.01,-7.150498,-7.5
18.598,1,169.767609,93.843231,-93.905212,108.800911,-0.02,-0.07,-0.43,-6.341391,-7.5
18.646999,1,169.723831,93.216095,-93.268494,108.885468,-0.06,-0.14,0.49,-5.372206,-7.5
18.695999,1,169.735504,92.943344,-92.990997,109.221031,0.01,-0.34,0.34,-4.916599,-7.5
18.745001,1,169.876617,92.956863,-93.003525,108.885468,0.27,0.19,0.06,-4.939065,-7.5
18.792,1,169.779144,92.983795,-93.031891,108.800911,-0.11,-0.15,0.16,-5.113786,-7.5
18.84,1,169.778198,92.973816,-93.021767,108.970016,-0.02,0.13,0.21,-5.030684,-7.5
18.889,1,169.795227,92.946312,-92.993622,108.716362,0.17,-0.09,-0.02,-4.921556,-7.5
18.938999,1,169.802185,92.914497,-92.961044,108.800911,-0.16,-0.13,0.05,-4.808965,-7.5
18.988001,1,169.887451,92.861427,-92.906723,108.800911,0.05,0.16,0.27,-4.779651,-7.5
19.035999,1,170.033005,92.711906,-92.753433,109.136482,-0.06,-0.09,0.14,-4.587734,-7.5
19.083,1,170.187729,92.599998,-92.638657,108.970016,-0.01,0.07,0.12,-4.455903,-7.5
19.131001,1,170.222183,92.542839,-92.580345,109.051926,0,-0.05,0.03,-4.301618,-7.5
19.18,1,170.237976,92.598145,-92.636162,108.885468,-0.06,-0.02,0.05,-4.339973,-7.5
19.226999,1,170.274933,92.517403,-92.554024,108.970016,0.11,0.13,0.13,-4.314458,-7.5
19.274,1,170.275192,92.364632,-92.399193,109.051926,0,-0.09,0.09,-4.052529,-7.5
19.322001,1,170.257385,92.233742,-92.266426,108.380791,0,-0.06,0.1,-3.77873,-7.5
19.368999,1,170.328262,92.144112,-92.175049,108.4627,-0.04,0.29,0.07,-3.674692,-7.5
19.416,1,170.255997,92.126114,-92.157082,109.136482,-0.03,-0.31,0.09,-3.643755,-7.5
19.462999,1,170.323456,92.260231,-92.292717,108.970016,-0.11,0.31,0.11,-3.873703,-7.5
19.511,1,170.345886,92.337845,-92.371269,109.136482,0.13,-0.02,-0.01,-3.954837,-7.5
19.561001,1,170.313187,92.251366,-92.283768,108.547256,-0.01,0.04,-0.02,-3.714702,-7.5
19.610001,1,170.338165,92.146683,-92.177559,108.716362,-0.08,-0.01,0.06,-3.585846,-7.5
19.66,1,170.354172,92.105202,-92.135239,108.716362,0.05,-0.19,0.07,-3.473615,-7.5
19.708,1,170.363098,92.093468,-92.123497,109.136482,-0.04,-0.12,0,-3.541434,-7.5
19.756001,1,170.473801,92.103127,-92.132568,108.547256,0.01,0.22,0.17,-3.557774,-7.5
19.802999,1,170.475281,92.072403,-92.101456,108.4627,0.11,0.15,-0.05,-3.551794,-7.5
19.851999,1,170.410141,92.013161,-92.041618,108.716362,-0.06,-0.07,0.02,-3.362809,-7.5
19.900999,1,170.363434,91.990005,-92.018478,108.800911,-0.12,-0.12,0.07,-3.32413,-7.5
19.950001,1,170.323517,91.937958,-91.965988,109.136482,0,0.19,0,-3.237112,-7.5
20,1,170.272293,91.925522,-91.953552,108.970016,0,-0.06,0.25,-3.17714,-7.5
20.048,1,170.252502,91.873535,-91.900986,108.547256,-0.13,0,0.03,-3.169383,-7.5
20.094999,1,170.251633,92.115952,-92.14695,108.716362,0.05,0.04,0,-3.62643,-7.5
20.143,1,170.261139,92.363266,-92.397911,108.885468,-0.05,0.01,0,-3.997841,-7.5
20.191999,1,170.292542,92.51474,-92.55117,108.800911,-0.05,0.29,0.06,-4.200654,-7.5
20.240999,1,170.254318,92.611855,-92.650185,108.631805,-0.05,-0.3,0.17,-4.362875,-7.5
20.291,1,170.349274,93.045593,-93.089043,108.380791,0.15,0.13,0.06,-5.025159,-7.5
20.34,1,170.375137,93.375999,-93.424004,108.4627,-0.31,0.01,-0.18,-5.639312,-7.5
20.388,1,170.239685,93.054222,-93.099052,108.800911,0.3,0.12,0.39,-5.166703,-7.5
20.434999,1,169.859634,92.763359,-92.807159,108.885468,-0.42,-0.19,-0.35,-4.735991,-7.5
20.483,1,169.936935,92.344757,-92.381371,108.970016,0.1,-0.43,0.47,-3.96653,-7.5
20.530001,1,170.202072,92.747887,-92.788528,108.800911,-0.02,0.11,0.26,-4.709355,-7.5
20.577,1,170.146286,93.225845,-93.274078,108.547256,-0.03,-0.08,0.02,-5.528625,-7.5
20.624001,1,169.843018,94.106575,-94.171928,108.296242,-0.26,0.06,-0.05,-7.037889,-7.5
20.671,1,169.427689,94.854439,-94.93766,109.305588,0.18,-0.65,0.49,-7.5,-7.5
20.719,1,169.071457,96.761513,-96.885071,109.390137,-0.09,0.11,0.06,-7.5,-7.5
20.766001,1,168.788452,99.479416,-99.659775,108.716362,0.39,-0.16,0.56,-7.5,-7.5
20.813999,1,168.814285,100.691147,-100.893532,108.716362,0.14,0.27,0.29,-7.5,-7.5
20.864,1,169.031128,101.501755,-101.710274,108.970016,-0.12,0.04,0.07,-7.5,-7.5
20.913,1,169.024063,102.943794,-103.176704,108.970016,0.01,-0.14,-0.12,-7.5,-7.5
20.962,1,169.108887,103.634735,-103.874512,108.211685,-0.44,0.34,-0.84,-7.5,-7.5
21.011999,1,169.558105,104.377243,-104.609352,108.4627,0.48,-0.45,1.16,-7.5,-7.5
21.059999,1,170.045944,104.768997,-104.984238,108.885468,0.05,0.51,-0.38,-7.5,-7.5
21.108,1,170.113663,105.35598,-105.577515,108.547256,0.2,0.03,0.34,-7.5,-7.5
21.155001,1,170.09198,105.339569,-105.559929,108.296242,-0.13,-0.12,-0.12,-7.5,-7.5
21.204,1,170.010437,105.393311,-105.618713,108.885468,-0.25,0,-0.38,-7.5,-7.5
21.254,1,170.096436,105.554222,-105.778587,108.211685,-0.11,0.32,-0.06,-7.5,-7.5
21.302999,1,170.195419,106.100319,-106.326462,108.380791,-0.05,-0.39,0.42,-7.5,-7.5
21.351999,1,170.342178,106.27536,-106.496239,108.547256,-0.05,0.39,0.12,-7.5,-7.5
21.400999,1,170.359741,105.397263,-105.607307,108.380791,0,-0.43,0.14,-7.5,-7.5
21.448,1,170.400925,104.770653,-104.970627,108.4627,-0.13,-0.33,-0.07,-7.5,-7.5
21.496,1,170.574524,104.444504,-104.633865,108.380791,0.16,0.09,0.05,-7.5,-7.5
21.545,1,170.600494,104.173355,-104.358246,108.296242,0.08,0.21,0.49,-7.5,-7.5
21.594,1,170.505096,103.624969,-103.807854,108.547256,0.12,-0.12,0.19,-7.5,-7.5
21.643,1,170.423126,103.022232,-103.20018,108.716362,-0.12,0.01,-0.27,-7.5,-7.5
21.691,1,170.330887,102.85923,-103.038918,108.970016,0.06,-0.16,0.41,-7.5,-7.5
21.738001,1,170.277145,102.86953,-103.051186,108.716362,-0.12,0.11,0.06,-7.5,-7.5
21.785999,1,170.132492,102.708328,-102.893158,108.800911,0.12,0.04,0.08,-7.5,-7.5
21.833,1,169.990448,102.639458,-102.829498,109.474693,-0.07,-0.33,0.25,-7.5,-7.5
21.881001,1,170.049072,102.683647,-102.871056,108.885468,0.03,0.11,0.04,-7.5,-7.5
21.927999,1,170.017944,102.547333,-102.733147,108.970016,-0.21,-0.05,0.32,-7.5,-7.5
21.976,1,169.976913,102.464622,-102.652252,109.305588,0.03,-0.17,-0.11,-7.5,-7.5
22.024,1,170.028564,102.497749,-102.683113,109.221031,-0.03,0.06,0.05,-7.5,-7.5
22.070999,1,170.043488,102.317894,-102.501472,109.221031,0.04,-0.07,0.31,-7.5,-7.5
22.118,1,170.0056,102.202484,-102.385567,108.800911,-0.02,-0.11,0.02,-7.5,-7.5
22.167,1,170.027054,102.162262,-102.342232,109.051926,0,0.03,0.44,-7.5,-7.5
22.216,1,169.940323,102.057922,-102.240166,108.970016,-0.02,-0.15,-0.26,-7.5,-7.5
22.266001,1,169.909653,101.857025,-102.037819,109.221031,0,-0.11,-0.06,-7.5,-7.5
22.315001,1,169.951279,101.784119,-101.962532,109.051926,0.01,0.06,0.23,-7.5,-7.5
22.364,1,169.926361,101.662064,-101.83905,109.221031,-0.09,-0.05,0.32,-7.5,-7.5
22.410999,1,169.877197,101.536545,-101.714348,109.051926,0.08,-0.02,0.09,-7.5,-7.5
22.458,1,169.854813,101.516533,-101.69503,109.051926,-0.06,-0.17,0.13,-7.5,-7.5
22.507,1,169.872223,101.498337,-101.676033,108.547256,-0.01,0.13,0.18,-7.5,-7.5
22.556999,1,169.853104,101.45472,-101.631134,109.051926,-0.04,0,-0.07,-7.5,-7.5
22.606001,1,169.820526,101.474632,-101.652313,108.885468,-0.06,-0.4,0.12,-7.5,-7.5
22.656,1,169.895767,101.549194,-101.725105,108.970016,0.03,0.2,0.2,-7.5,-7.5
22.705,1,169.880753,101.53286,-101.710976,108.631805,0.04,-0.21,0.17,-7.5,-7.5
22.752001,1,169.891464,101.541962,-101.718742,109.136482,-0.04,0.02,0.1,-7.5,-7.5
22.799,1,169.928452,101.500214,-101.674713,108.547256,0.02,0,0.3,-7.5,-7.5
22.848,1,169.982178,101.52784,-101.700737,108.800911,0.04,-0.01,0.03,-7.5,-7.5
22.898001,1,170.005676,101.433647,-101.605911,109.221031,-0.16,0.05,-0.16,-7.5,-7.5
22.947001,1,170.005859,101.248138,-101.417381,108.800911,0.05,-0.02,0.49,-7.5,-7.5
22.996,1,170.006439,101.180969,-101.348686,108.4627,0.06,0.03,0.02,-7.5,-7.5
23.044001,1,169.914276,101.115601,-101.285789,108.547256,-0.1,-0.4,0.18,-7.5,-7.5
23.091,1,169.888779,100.859146,-101.025833,108.4627,0.11,0.01,0.07,-7.5,-7.5
23.139,1,169.888428,100.801666,-100.967957,108.380791,0,-0.29,-0.05,-7.5,-7.5
23.186001,1,169.86467,100.809464,-100.976883,108.127136,-0.09,-0.16,0.16,-7.5,-7.5
23.233,1,169.864365,100.818436,-100.986,108.547256,-0.01,-0.01,0.64,-7.5,-7.5
23.280001,1,169.911362,100.898933,-101.065117,108.380791,0.12,-0.15,-0.08,-7.5,-7.5
23.329,1,169.9496,100.965652,-101.132202,108.4627,-0.06,0.09,0.06,-7.5,-7.5
23.375999,1,169.929794,100.844795,-101.010612,108.800911,0.03,0,0.05,-7.5,-7.5
23.423,1,169.937561,100.67765,-100.840309,108.716362,-0.05,-0.26,0.05,-7.5,-7.5
23.471001,1,169.987274,100.821877,-100.985153,109.051926,0,-0.31,0.23,-7.5,-7.5
23.52,1,170.145599,101.356697,-101.522163,109.221031,0.05,0.05,0.18,-7.5,-7.5
23.569,1,170.126465,101.915359,-102.089127,108.885468,-0.06,0.05,-0.12,-7.5,-7.5
23.618999,1,170.199753,102.229919,-102.405426,108.631805,0,0.09,-0.11,-7.5,-7.5
23.667999,1,170.309769,102.521721,-102.697784,108.547256,-0.02,-0.2,0.28,-7.5,-7.5
23.716999,1,170.448166,103.036682,-103.213615,108.211685,-0.04,-0.09,0.24,-7.5,-7.5
23.766001,1,170.604675,103.344353,-103.518585,108.716362,-0.05,0.43,-0.13,-7.5,-7.5
23.813,1,170.708939,103.352432,-103.523064,108.296242,0.12,0.01,0.11,-7.5,-7.5
23.861,1,170.716843,103.390244,-103.562065,108.4627,-0.03,-0.03,0.11,-7.5,-7.5
23.91,1,170.635529,103.407448,-103.582619,108.04258,-0.03,-0.07,0.25,-7.5,-7.5
23.959,1,170.683502,103.198479,-103.368629,108.716362,0.17,0.24,-0.16,-7.5,-7.5
24.009001,1,170.637878,103.071541,-103.242149,108.631805,-0.19,-0.14,0.19,-7.5,-7.5
24.056999,1,170.568817,103.104431,-103.278389,109.051926,0.09,-0.11,0.07,-7.5,-7.5
24.104,1,170.557098,103.273094,-103.449677,108.885468,0.03,0.15,0.23,-7.5,-7.5
24.152,1,170.465042,103.369606,-103.551018,108.716362,0.01,-0.16,-0.04,-7.5,-7.5
24.201,1,170.352631,103.395142,-103.58004,108.380791,0,0.05,0.29,-7.5,-7.5
24.25,1,170.406662,103.226799,-103.407333,108.380791,0.01,0.03,-0.25,-7.5,-7.5
24.299999,1,170.480972,103.189827,-103.367332,108.04258,-0.07,-0.17,0.52,-7.5,-7.5
24.349001,1,170.422134,103.25676,-103.436592,108.380791,0.02,0.19,0.08,-7.5,-7.5
24.396999,1,170.448441,103.225479,-103.404572,108.800911,0.18,-0.02,0.07,-7.5,-7.5
24.444,1,170.473679,103.39991,-103.580795,108.970016,-0.06,-0.06,0.34,-7.5,-7.5
24.492001,1,170.477982,103.681351,-103.864677,108.800911,0.03,0,0.1,-7.5,-7.5
24.539,1,170.512512,104.132721,-104.320335,108.04258,0.09,0,0.17,-7.5,-7.5
24.586,1,170.546997,104.411064,-104.601418,108.631805,-0.02,0.21,-0.04,-7.5,-7.5
24.632999,1,170.584152,104.433044,-104.621605,108.716362,-0.02,-0.09,-0.08,-7.5,-7.5
24.68,1,170.522278,104.574135,-104.767029,109.051926,-0.01,0.25,0.34,-7.5,-7.5
24.726999,1,170.470566,104.797188,-104.994583,108.211685,0.11,-0.1,-0.06,-7.5,-7.5
24.774,1,170.601944,104.622932,-104.812523,108.547256,-0.02,0.3,-0.31,-7.5,-7.5
24.823,1,170.574341,104.42971,-104.618019,108.885468,0,-0.3,0.31,-7.5,-7.5
24.872,1,170.578583,104.327667,-104.515381,108.547256,0.12,0.07,0.4,-7.5,-7.5
24.922001,1,170.603165,104.342804,-104.528725,108.547256,0.07,0.16,0.09,-7.5,-7.5
24.971001,1,170.516281,104.256332,-104.44574,108.970016,-0.08,-0.11,0.04,-7.5,-7.5
25.02,1,170.490814,104.299316,-104.490486,108.631805,-0.03,0.14,0.15,-7.5,-7.5
25.066999,1,170.43483,104.838699,-105.038734,108.631805,0.08,-0.17,0.14,-7.5,-7.5
25.114,1,170.32724,105.212776,-105.421288,108.547256,-0.05,0.24,-0.1,-7.5,-7.5
25.163,1,170.285767,105.010246,-105.218063,108.970016,0.05,0.15,0.21,-7.5,-7.5
25.212999,1,170.141083,105.014236,-105.229187,108.211685,-0.04,-0.31,0.23,-7.5,-7.5
25.261999,1,170.172455,104.921616,-105.133286,108.296242,-0.1,0.09,0.1,-7.5,-7.5
25.311001,1,170.140884,104.75209,-104.964684,109.051926,0.12,-0.26,0.21,-7.5,-7.5
25.361,1,170.143433,104.784233,-104.996246,108.800911,-0.04,0.04,0.02,-7.5,-7.5
25.408001,1,170.227509,104.87455,-105.083801,108.631805,0.02,0.02,0.07,-7.5,-7.5
25.455,1,170.225403,104.861328,-105.071213,108.296242,0,-0.2,0.13,-7.5,-7.5
25.504,1,170.273148,104.868752,-105.07547,108.547256,0.11,0,0.2,-7.5,-7.5
25.552999,1,170.263458,104.8274,-105.033585,108.547256,0.14,-0.02,0.1,-7.5,-7.5
25.601999,1,170.23526,104.735222,-104.94207,108.631805,-0.08,0.09,0.2,-7.5,-7.5
25.650999,1,170.257629,104.695618,-104.901711,108.380791,0.04,-0.13,0,-7.5,-7.5
25.698999,1,170.261917,104.67305,-104.879463,108.296242,-0.08,0.05,0.09,-7.5,-7.5
25.746,1,170.238297,104.55088,-104.755066,108.800911,0.12,-0.02,0.09,-7.5,-7.5
25.795,1,170.241226,104.526436,-104.729851,108.631805,-0.07,-0.03,0.08,-7.5,-7.5
25.841999,1,170.235489,104.526436,-104.731499,108.547256,-0.01,-0.24,0.13,-7.5,-7.5
25.889,1,170.22818,104.642998,-104.849602,108.970016,-0.08,0.1,0.12,-7.5,-7.5
25.936001,1,170.232925,104.729652,-104.937447,108.800911,0.05,0.17,-0.06,-7.5,-7.5
25.983,1,170.246979,104.692146,-104.897804,108.631805,0,-0.05,0.12,-7.5,-7.5
26.030001,1,170.200851,104.679153,-104.887276,108.716362,-0.13,0.07,0.48,-7.5,-7.5
26.077,1,170.191498,104.873131,-105.084183,108.716362,0.04,0,-0.2,-7.5,-7.5
26.125999,1,170.1651,105.081284,-105.295303,108.800911,-0.01,-0.03,0.07,-7.5,-7.5
26.174999,1,170.144241,105.094566,-105.308922,108.885468,-0.09,0.04,0.08,-7.5,-7.5
26.225,1,170.165115,105.011368,-105.224396,108.970016,-0.07,0.05,0.12,-7.5,-7.5
26.274,1,170.154419,104.973534,-105.186951,108.631805,0.03,-0.14,-0.01,-7.5,-7.5
26.323,1,170.168732,104.998108,-105.21154,109.051926,0.01,0.16,0.11,-7.5,-7.5
26.371,1,170.191269,104.804161,-105.012688,108.716362,-0.15,-0.26,0.12,-7.5,-7.5
26.417999,1,170.218994,104.751549,-104.959587,108.296242,0.14,0.09,0.17,-7.5,-7.5
26.466,1,170.287323,104.802223,-105.008354,108.885468,0,-0.01,0,-7.5,-7.5
26.516001,1,170.311172,104.932411,-105.139511,108.800911,-0.09,-0.13,0.21,-7.5,-7.5
26.565001,1,170.350571,104.794495,-104.99765,109.305588,-0.05,0.14,-0.1,-7.5,-7.5
26.614,1,170.505966,104.602104,-104.796021,109.221031,0.22,-0.1,0.13,-7.5,-7.5
26.663,1,170.527405,104.594238,-104.787041,109.051926,-0.13,0.11,0.07,-7.5,-7.5
26.711,1,170.554138,104.378036,-104.567764,109.051926,0.18,-0.06,0.11,-7.5,-7.5
26.757999,1,170.551376,104.018639,-104.20488,108.970016,0.07,0.04,-0.17,-7.5,-7.5
26.806999,1,170.51593,103.82663,-104.011398,108.885468,-0.12,-0.18,0.12,-7.5,-7.5
26.856001,1,170.498459,103.785706,-103.968796,108.716362,-0.12,-0.23,0.12,-7.5,-7.5
26.906,1,170.603012,103.794708,-103.975128,108.716362,0.12,0.42,-0.24,-7.5,-7.5
26.955,1,170.559143,103.8638,-104.047073,109.051926,0.11,-0.05,0.03,-7.5,-7.5
27.004,1,170.499802,103.906807,-104.091835,109.221031,-0.04,-0.18,0.41,-7.5,-7.5
27.052999,1,170.474319,104.024185,-104.21138,109.051926,-0.02,0,-0.08,-7.5,-7.5
27.1,1,170.425354,104.222572,-104.416412,108.547256,-0.09,-0.11,0.06,-7.5,-7.5
27.146999,1,170.398682,104.604012,-104.802155,108.4627,-0.1,0.15,0.22,-7.5,-7.5
27.194,1,170.312103,105.440948,-105.654709,108.631805,-0.07,0.57,-0.09,-7.5,-7.5
27.240999,1,169.639786,106.435867,-106.693634,108.547256,0.07,-0.28,0.53,-7.5,-7.5
27.289,1,168.980057,106.730057,-107.026421,108.631805,-0.29,0.07,0.58,-7.5,-7.5
27.336,1,168.263184,106.45694,-106.789207,108.800911,-0.17,-1.09,-0.69,-7.5,-7.5
27.382999,1,167.480759,106.841461,-107.227898,108.800911,0.02,-0.2,-0.31,-7.5,-7.5
27.43,1,167.065491,107.215034,-107.636108,108.970016,0,0.09,0.27,-7.5,-7.5
27.479,1,166.883011,107.538895,-107.977844,108.547256,-0.21,-0.22,-0.07,-7.5,-7.5
27.528,1,166.894455,107.58062,-108.019104,108.970016,0.06,-0.05,0.36,-7.5,-7.5
27.577,1,166.633713,108.43956,-108.916031,109.136482,0.09,-0.05,0.2,-7.5,-7.5
27.627001,1,166.549896,108.938339,-109.434441,109.136482,0.17,0.47,0,-7.5,-7.5
27.676001,1,166.569809,108.683983,-109.171288,108.970016,0.08,-0.17,0.06,-7.5,-7.5
27.725,1,166.552689,108.628128,-109.117203,108.631805,-0.02,-0.1,0.29,-7.5,-7.5
27.773001,1,166.581085,108.592888,-109.077728,108.631805,-0.02,0.18,-0.01,-7.5,-7.5
27.82,1,166.601395,108.375305,-108.851486,108.885468,0.01,-0.17,0.22,-7.5,-7.5
27.868999,1,166.615112,108.291252,-108.766281,108.885468,0.08,-0.09,0,-7.5,-7.5
27.917999,1,166.664673,108.225334,-108.696655,108.631805,-0.19,0.23,-0.07,-7.5,-7.5
27.968,1,166.671585,107.924965,-108.389374,108.547256,0.04,-0.2,0.09,-7.5,-7.5
28.017,1,166.742691,107.548409,-107.999275,108.380791,0.22,-0.18,-0.03,-7.5,-7.5
28.063999,1,166.825958,107.401329,-107.843246,108.547256,-0.02,0.05,-0.02,-7.5,-7.5
28.111,1,166.894165,107.32692,-107.762161,108.631805,-0.17,-0.01,0.21,-7.5,-7.5
28.16,1,166.895569,107.246002,-107.678268,108.4627,0.08,-0.07,-0.03,-7.5,-7.5
28.209,1,166.890518,107.287766,-107.721657,108.04258,0.4,-0.13,-0.02,-7.5,-7.5
28.257999,1,166.774811,107.621803,-108.071007,108.211685,-0.19,0.03,0.11,-7.5,-7.5
28.308001,1,166.726547,107.896889,-108.355873,108.296242,0.06,0.16,0.25,-7.5,-7.5
28.357,1,166.649307,108.030167,-108.498146,109.051926,-0.19,-0.35,-0.03,-7.5,-7.5
28.403999,1,166.530884,108.900253,-109.394928,109.305588,-0.02,-0.14,0.14,-7.5,-7.5
28.451,1,166.261887,110.126274,-110.669312,108.631805,0.1,0.33,0.15,-7.5,-7.5
28.499001,1,165.997833,110.918571,-111.500008,108.885468,0.16,0,-0.13,-7.5,-7.5
28.546,1,165.67308,111.704567,-112.33503,109.136482,-0.19,-0.04,0.17,-7.5,-7.5
28.593,1,165.436493,112.321976,-112.989731,109.136482,-0.04,-0.11,0.35,-7.5,-7.5
28.639999,1,165.216919,113.048729,-113.749939,108.885468,0.19,-0.31,-0.07,-7.5,-7.5
28.687,1,164.889862,114.603111,-115.374046,108.885468,0.22,-0.24,0.03,-7.5,-7.5
28.733999,1,164.12883,116.531029,-117.429527,109.221031,-0.18,0.39,0.28,-7.5,-7.5
28.782,1,163.274139,118.163193,-119.207642,108.970016,-0.39,-0.04,-0.43,-7.5,-7.5
28.830999,1,163.403305,118.829712,-119.874619,108.296242,0.12,0.38,0.5,-7.5,-7.5
28.881001,1,163.586212,118.956497,-119.975227,109.051926,-0.22,0.87,0.31,-7.5,-7.5
28.93,1,163.350433,118.844017,-119.892624,108.211685,0.12,-0.94,0.48,-7.5,-7.5
28.98,1,164.034378,118.198463,-119.147865,108.547256,0,0.21,-0.08,-7.5,-7.5
29.028,1,164.26001,117.673523,-118.582924,108.380791,0.21,-0.02,0.14,-7.5,-7.5
29.075001,1,164.212509,117.326591,-118.234474,109.390137,-0.14,-0.36,0.14,-7.5,-7.5
29.122999,1,164.428192,117.086021,-117.962631,108.800911,0.03,0.37,-0.06,-7.5,-7.5
29.172001,1,164.646088,116.464005,-117.306801,109.221031,-0.05,0.25,-0.1,-7.5,-7.5
29.221001,1,164.815491,115.249611,-116.043709,109.390137,-0.29,-0.13,-1.21,-7.5,-7.5
29.27,1,165.190689,114.277298,-115.010185,109.810265,0.23,-0.16,0.02,-7.5,-7.5
29.32,1,165.427872,113.563774,-114.257294,109.221031,0.1,0.31,-0.05,-7.5,-7.5
29.368,1,165.500305,113.054955,-113.728607,109.474693,-0.25,-0.17,-0.24,-7.5,-7.5
29.416,1,166.250015,110.753754,-111.311195,109.474693,-0.43,-0.15,0.19,-7.5,-7.5
29.462999,1,166.800079,108.954956,-109.431648,109.051926,0.1,-0.17,-0.04,-7.5,-7.5
29.511999,1,167.31517,107.215233,-107.620308,109.390137,-0.22,-0.28,0.33,-7.5,-7.5
29.562,1,167.654022,105.377487,-105.723228,108.380791,0.04,0.32,-0.04,-7.5,-7.5
29.611,1,167.967499,104.162918,-104.468178,108.970016,-0.21,-0.83,0.02,-7.5,-7.5
29.660999,1,168.124695,103.183426,-103.462013,109.221031,0.06,0.41,0.5,-7.5,-7.5
29.709,1,168.255203,102.060707,-102.310867,109.305588,0.09,0.49,-0.41,-7.5,-7.5
29.756001,1,168.192307,101.727264,-101.972725,109.136482,0.34,-0.26,0.1,-7.5,-7.5
29.804001,1,168.166382,101.679665,-101.926674,108.4627,0.07,0.38,-0.16,-7.5,-7.5
29.851,1,168.10733,101.024529,-101.25972,109.136482,-0.16,-0.58,0.15,-7.5,-7.5
29.898001,1,168.123306,100.411522,-100.634384,109.136482,-0.15,0.08,0.08,-7.5,-7.5
29.945,1,168.240723,99.561958,-99.763176,109.305588,0.1,0.27,-0.23,-7.5,-7.5
29.992001,1,168.152435,99.306946,-99.505051,109.136482,0.04,-0.4,0.31,-7.5,-7.5
30.040001,1,168.098877,99.470238,-99.67485,108.716362,0.16,0.24,-0.17,-7.5,-7.5
30.087,1,168.106949,99.626976,-99.834259,109.641159,0.01,-0.17,0.4,-7.5,-7.5
30.135,1,168.061966,99.755669,-99.967384,108.885468,-0.05,0.17,0.03,-7.5,-7.5
32.167999,1,170.059189,98.856857,-98.989563,108.885468,0,-0.31,0.05,-7.5,-7.5
34.191002,1,171.095688,99.746422,-99.862785,108.800911,0.01,0.05,0.1,-7.5,-7.5
36.224998,1,172.019943,100.420921,-100.519783,109.051926,0.06,-0.05,-0.03,-7.5,-7.5
38.250999,1,172.091431,101.449158,-101.555473,108.547256,-0.02,-0.21,0.04,-7.5,-7.5
40.268002,0,172.955307,100.839241,-100.92038,108.800911,0.11,0.01,0.13,0,0
42.310001,0,173.779099,105.249443,-105.336266,108.970016,-0.11,-0.21,-0.02,0,0
44.355,0,174.629059,103.651321,-103.708679,108.4627,0.04,-0.15,0.04,0,0
46.398998,0,174.00383,100.642258,-100.699684,108.800911,-0.01,0.03,-0.38,0,0
48.400002,0,165.204956,95.092278,-95.265976,108.800911,0.07,-0.18,-0.06,0,0
50.436001,0,167.179825,95.053802,-95.182388,109.305588,-0.19,0.06,0.08,0,0
0.046,1,168.139832,89.390686,-89.377411,109.136482,-0.93,-0.05,-0.54,3.442624,-7.5
0.093,1,168.268738,86.207703,-86.12719,108.970016,-0.16,-0.6,0.16,6.499352,-7.5
0.14,1,168.30809,81.594574,-81.419441,109.305588,0.39,-0.07,0.31,7.5,-7.5
0.187,1,168.087219,73.642784,-73.302612,109.305588,0.19,0.64,-0.7,7.5,-7.5
0.235,1,167.170517,66.839256,-66.309982,109.221031,0.49,0.5,-0.15,7.5,-7.5
0.282,1,165.204834,60.394482,-59.556671,108.631805,-0.43,0.81,0.03,7.5,-7.5
0.329,1,163.950714,58.4095,-57.384201,109.725708,-0.3,-0.55,1.06,7.5,-7.5
0.377,1,164.019989,56.346165,-55.29644,109.221031,0.39,-0.42,0.46,7.5,-7.5
0.426,1,164.396194,53.212086,-52.174503,109.390137,0.18,-0.7,0.18,7.5,-7.5
0.475,1,164.509857,48.247253,-47.19173,109.136482,0.13,-0.39,-0.74,7.5,-7.5
0.525,1,163.864792,42.694901,-41.54945,109.390137,-0.09,-0.12,0.35,7.5,-7.5
0.574,1,162.106323,37.239586,-35.880577,109.051926,-0.21,0.42,0.2,7.5,-7.5
0.623,1,159.12532,31.267839,-29.570387,109.305588,-0.48,0.76,-0.27,7.5,-7.5
0.672,1,155.073441,27.029922,-24.827579,109.221031,-0.63,0.68,-0.1,7.5,-7.5
0.719,1,150.549225,24.400143,-21.553961,109.136482,-0.34,0.31,-0.15,7.5,-7.5
0.767,1,145.9198,22.484997,-18.922768,108.970016,-0.16,-0.04,-0.28,7.5,-7.5
0.816,1,140.363724,20.599068,-16.143297,108.885468,0.23,0,-0.51,7.5,-7.5
0.865,1,139.134567,20.807039,-16.033382,109.136482,0.24,1.15,-1.7,7.5,-7.5
0.915,1,143.14859,24.010237,-19.617998,108.885468,-0.33,-0.28,0.35,7.5,-7.5
0.964,1,142.970612,25.186687,-20.577948,108.970016,0.46,-0.6,0.25,7.5,-7.5
1.013,1,143.381866,26.131586,-21.492022,109.390137,0.13,-0.2,-0.01,7.5,-7.5
1.06,1,144.696823,27.548761,-23.060711,109.221031,-0.09,0.01,-0.23,7.5,-7.5
1.108,1,145.327209,28.304815,-23.889687,109.051926,-0.18,0.1,-0.18,7.5,-7.5
1.157,1,145.696396,28.846975,-24.465666,109.390137,-0.1,-0.16,0.06,7.5,-7.5
1.206,1,145.620178,29.025915,-24.606314,109.051926,0.24,0,-1.13,7.5,-7.5
1.256,1,145.94664,30.190432,-25.73579,108.970016,-0.13,-0.36,0.25,7.5,-7.5
1.304,1,146.115311,30.441271,-26.005861,108.970016,0.24,-0.09,0.14,7.5,-7.5
1.352,1,146.597931,30.789455,-26.447638,108.800911,-0.03,0,-0.23,7.5,-7.5
1.399,1,146.733719,30.948671,-26.627556,109.051926,0.22,-0.22,-0.62,7.5,-7.5
1.446,1,146.687408,31.338737,-26.970383,108.970016,-0.04,0.2,-0.1,7.5,-7.5
1.493,1,146.746353,31.940285,-27.534279,108.800911,-0.04,-0.1,0.32,7.5,-7.5
1.54,1,147.361893,32.103275,-27.848072,108.800911,0.15,0.1,-0.84,7.5,-7.5
1.588,1,147.307236,32.190239,-27.913258,108.885468,0.08,0.06,-0.22,7.5,-7.5
1.635,1,146.909531,32.383587,-27.984667,108.970016,0.16,0.08,0.3,7.5,-7.5
1.682,1,146.716888,32.573757,-28.105549,109.051926,-0.13,-0.55,0.35,7.5,-7.5
1.73,1,146.987762,32.4925,-28.104712,109.221031,-0.13,0.48,-0.38,7.5,-7.5
1.779,1,147.356339,32.572693,-28.278357,109.221031,0.24,0.05,-0.48,7.5,-7.5
1.828,1,147.285706,32.757702,-28.428972,109.221031,-0.04,-0.04,-0.34,7.5,-7.5
1.878,1,147.172058,33.293358,-28.890905,109.556602,0.05,-0.12,-0.06,7.5,-7.5
1.927,1,147.374329,34.329651,-29.904909,109.136482,-0.17,-0.07,0.42,7.5,-7.5
1.976,1,147.615326,34.710629,-30.326448,108.970016,0.08,-0.23,-0.55,7.5,-7.5
2.025,1,147.346878,34.753216,-30.291014,109.390137,-0.04,0.1,0.08,7.5,-7.5
2.072,1,147.251968,34.695061,-30.210573,108.885468,-0.01,0.32,-0.06,7.5,-7.5
2.12,1,147.19104,34.819565,-30.309484,109.305588,0.11,-0.34,-0.29,7.5,-7.5
2.169,1,146.723633,34.619736,-29.992523,109.556602,0,-0.03,0.11,7.5,-7.5
2.218,1,146.566681,34.401695,-29.746492,109.136482,0,0.23,0.01,7.5,-7.5
2.268,1,146.525772,34.33955,-29.677618,109.221031,0.09,-0.09,-0.39,7.5,-7.5
2.317,1,146.258865,34.127419,-29.405437,109.390137,-0.15,0.03,0.1,7.5,-7.5
2.365,1,146.206192,33.99823,-29.271606,109.136482,0.09,0.11,-0.13,7.5,-7.5
2.412,1,146.19313,34.013813,-29.281097,108.547256,0,-0.04,0.01,7.5,-7.5
2.46,1,146.168732,34.008755,-29.270695,108.547256,0,-0.08,-0.04,7.5,-7.5
2.51,1,146.208328,34.034496,-29.305532,109.136482,0.11,0,-0.21,7.5,-7.5
2.559,1,146.228363,33.987888,-29.26807,109.136482,0.08,-0.02,-0.14,7.5,-7.5
2.608,1,146.277176,34.02916,-29.319292,109.641159,0.06,-0.07,-0.16,7.5,-7.5
2.657,1,146.162399,33.988125,-29.249491,108.885468,-0.05,-0.06,0.07,7.5,-7.5
2.706,1,146.261658,33.910347,-29.206417,109.051926,0,0.18,-0.24,7.5,-7.5
2.753,1,146.318558,34.01363,-29.317024,108.800911,-0.04,0.08,-0.05,7.5,-7.5
2.801,1,146.288635,34.091198,-29.38006,108.970016,0.17,-0.27,-0.23,7.5,-7.5
2.85,1,146.318832,34.10149,-29.39852,108.800911,-0.11,-0.04,0.18,7.5,-7.5
2.897,1,146.463623,34.147984,-29.48254,109.305588,0.04,0.06,-0.41,7.5,-7.5
2.944,1,146.410492,34.215248,-29.5296,109.051926,0.03,-0.22,0.09,7.5,-7.5
2.992,1,146.402817,34.220428,-29.530994,109.136482,-0.07,0.09,0.03,7.5,-7.5
3.039,1,146.594879,34.246441,-29.609732,108.970016,0,0.12,-0.17,7.5,-7.5
3.086,1,146.760834,34.360889,-29.763838,108.970016,-0.01,0.06,0.13,7.5,-7.5
3.133,1,146.879181,34.413376,-29.844936,108.800911,0.01,-0.22,-0.18,7.5,-7.5
3.182,1,146.927002,34.382317,-29.830065,109.136482,-0.03,0.24,0.25,7.5,-7.5
3.231,1,147.006546,34.309944,-29.784315,108.885468,0.03,-0.08,0.17,7.5,-7.5
3.28,1,147.179565,34.279888,-29.804636,108.547256,0.04,0.19,-0.2,7.5,-7.5
3.33,1,147.485077,34.411575,-30.011665,109.221031,-0.1,-0.18,0.21,7.5,-7.5
3.378,1,148.512039,34.593903,-30.46064,109.305588,-0.21,0,0.1,7.5,-7.5
3.425,1,149.407623,34.579082,-30.683479,108.716362,0,0.36,-0.07,7.5,-7.5
3.473,1,149.643951,34.527935,-30.696877,108.800911,-0.11,0.24,-0.11,7.5,-7.5
3.522,1,149.579559,34.423996,-30.581924,109.221031,0.12,0.08,0.06,7.5,-7.5
3.571,1,149.752823,34.508312,-30.705479,109.390137,-0.07,-0.09,-0.07,7.5,-7.5
3.621,1,149.973694,34.568138,-30.818335,108.885468,0.05,0.12,0,7.5,-7.5
3.669,1,150.16243,34.803898,-31.089428,109.051926,-0.09,0.07,-0.07,7.5,-7.5
3.717,1,150.142334,34.803299,-31.083387,109.305588,-0.1,0.02,0.14,7.5,-7.5
3.764,1,150.226807,34.69862,-31.005646,109.136482,0.07,0.32,0.1,7.5,-7.5
3.813,1,150.232773,34.528923,-30.847052,108.716362,-0.06,-0.14,0.03,7.5,-7.5
3.862,1,150.389832,34.290855,-30.661299,109.474693,0.21,0.15,-0.48,7.5,-7.5
3.912,1,150.262573,34.278996,-30.618654,108.800911,-0.13,0.21,0.41,7.5,-7.5
3.961,1,150.324066,34.198864,-30.558443,108.970016,0.04,0.09,0.07,7.5,-7.5
4.009,1,150.403885,34.2192,-30.598068,109.051926,-0.08,0.01,0.04,7.5,-7.5
4.056,1,150.45192,34.237682,-30.62796,108.970016,0.01,0.07,-0.16,7.5,-7.5
4.104,1,150.369598,34.249535,-30.618845,108.885468,-0.09,0.15,0.23,7.5,-7.5
4.151,1,150.457413,34.321663,-30.707497,109.221031,-0.05,0,-0.03,7.5,-7.5
4.199,1,150.53125,34.356068,-30.758406,108.970016,-0.01,0.15,-0.14,7.5,-7.5
4.246,1,150.442032,34.367809,-30.746843,109.221031,0.03,0.03,0.05,7.5,-7.5
4.294,1,150.408325,34.418137,-30.786486,109.051926,-0.1,0.05,0.08,7.5,-7.5
4.341,1,150.37294,34.431984,-30.79072,108.800911,-0.02,0.04,0.25,7.5,-7.5
4.388,1,150.564224,34.430458,-30.837719,108.716362,0,0.25,-0.17,7.5,-7.5
4.436,1,150.626846,34.55051,-30.966396,108.380791,0.05,0.04,0.02,7.5,-7.5
4.484,1,150.637665,34.693302,-31.104527,108.631805,-0.07,-0.04,0.02,7.5,-7.5
4.534,1,150.690918,34.951443,-31.361034,109.051926,-0.11,0.25,-0.15,7.5,-7.5
4.583,1,150.620163,34.98024,-31.370993,108.547256,0,-0.03,0.07,7.5,-7.5
4.632,1,150.7341,35.157322,-31.567436,108.716362,-0.11,0.36,-0.17,7.5,-7.5
4.681,1,150.601471,35.414612,-31.77813,108.970016,0.15,-0.08,0.04,7.5,-7.5
4.728,1,150.553604,35.456036,-31.804365,109.221031,0.07,0.04,-0.07,7.5,-7.5
4.776,1,150.527939,35.596264,-31.930862,109.051926,-0.07,-0.06,-0.04,7.5,-7.5
4.825,1,150.531891,35.826534,-32.150185,109.051926,-0.06,-0.09,0.13,7.5,-7.5
4.874,1,150.831573,36.249023,-32.628422,109.221031,-0.01,0.17,-0.09,7.5,-7.5
4.924,1,151.08519,36.825077,-33.242073,108.885468,-0.07,0,-0.15,7.5,-7.5
4.972,1,151.092117,37.181957,-33.585655,108.4627,0.24,0.1,-0.04,7.5,-7.5
5.021,1,151.398163,37.903801,-34.355919,108.970016,-0.26,-0.08,0.27,7.5,-7.5
5.068,1,151.502838,38.088367,-34.55957,109.136482,-0.05,0.2,0.45,7.5,-7.5
5.116,1,151.654404,38.133881,-34.641323,108.631805,0.03,0.15,-0.08,7.5,-7.5
5.165,1,151.955643,38.226624,-34.807693,108.885468,-0.04,0.17,-0.04,7.5,-7.5
5.215,1,151.977234,38.168816,-34.756416,108.885468,-0.1,0.29,0.06,7.5,-7.5
5.262,1,151.936325,38.127811,-34.705425,108.716362,-0.15,0.02,-0.02,7.5,-7.5
5.31,1,151.944656,38.033779,-34.618572,108.4627,0,0.49,0.33,7.5,-7.5
5.357,1,152.409363,38.442558,-35.126827,108.631805,-0.22,0.13,-0.1,7.5,-7.5
5.405,1,152.478622,38.494106,-35.194092,108.885468,0.12,-0.09,0.05,7.5,-7.5
5.452,1,152.451065,38.180836,-34.884674,109.725708,-0.1,0.22,0.19,7.5,-7.5
5.499,1,152.485535,38.0201,-34.737514,109.136482,0.01,0.15,-0.3,7.5,-7.5
5.546,1,152.310989,37.905479,-34.584919,109.810265,-0.02,0.21,0.36,7.5,-7.5
5.594,1,152.167419,37.790878,-34.438148,109.221031,0.02,0.19,0.13,7.5,-7.5
5.641,1,152.152634,37.681152,-34.330231,109.556602,0.01,0.03,-0.22,7.5,-7.5
